[
  {
    "pays": "France",
    "ville": "La Flèche",
    "annee": "2022",
    "latitude": "47.677613",
    "longitude": "-0.047574",
    "img": "data/images/zoodelafleche.jpg",
    "imgDesc": "Zoo de la Flèche",
    "lien": "https://www.zoo-la-fleche.com/"
  },
  {
    "pays": "France",
    "ville": "Chasseneuil-du-Poitou",
    "annee": "2022",
    "latitude": "46.666548",
    "longitude": "0.367555",
    "img": "data/images/futuroscope.jpg",
    "imgDesc": "Futuroscope",
    "lien": "https://www.futuroscope.com/fr/"
  },
  {
    "pays": "France",
    "ville": "Paris",
    "annee": "2022",
    "latitude": "48.975008",
    "longitude": "2.527979",
    "img": "data/images/japanexpo.jpg",
    "imgDesc": "Japan Expo",
    "lien": "https://www.japan-expo-paris.com/fr/"
  },
  {
    "pays": "France",
    "ville": "Le Mans",
    "annee": "2022",
    "latitude": "47.954643",
    "longitude": "0.212642",
    "img": "data/images/24hmans.jpg",
    "imgDesc": "Circuit des 24h du Mans",
    "lien": "https://www.24h-lemans.com/"
  },
  {
    "pays": "France",
    "ville": "Étretat",
    "annee": "2020",
    "latitude": "49.7074621",
    "longitude": "0.2031905",
    "img": "data/images/etretat.jpg",
    "imgDesc": "Falaises d'Étretat",
    "lien": "https://www.normandie-tourisme.fr/les-incontournables/etretat/"
  },
  {
    "pays": "France",
    "ville": "Deauville",
    "annee": "2020",
    "latitude": "49.3607683",
    "longitude": "0.0665354",
    "img": "data/images/cinemaamericain.jpg",
    "imgDesc": "Cabanes des artistes",
    "lien": "https://fr.wikipedia.org/wiki/Les_Planches_(Deauville)#Au_cin%C3%A9ma"
  },
  {
    "pays": "France",
    "ville": "Arromanches",
    "annee": "2020",
    "latitude": "49.34059524536133",
    "longitude": "-0.6217721104621887",
    "img": "data/images/plagedebarquement.jpg",
    "imgDesc": "Plages du débarquement",
    "lien": "https://www.normandie-tourisme.fr/les-incontournables/arromanches/"
  },
  {
    "pays": "France",
    "ville": "Colleville-sur-Mer",
    "annee": "2020",
    "latitude": "49.36289904303902",
    "longitude": "-0.8616100494384904",
    "img": "data/images/cimetiereamericain.jpg",
    "imgDesc": "Cimetière américain",
    "lien": "https://www.calvados-tourisme.com/offre/normandy-american-cemetery/"
  },
  {
    "pays": "France",
    "ville": "Cricqueville-en-Bessin",
    "annee": "2020",
    "latitude": "49.39579391479492",
    "longitude": "-0.9891084432601929",
    "img": "data/images/pointeduhoc.jpg",
    "imgDesc": "'Pointe du Hoc'",
    "lien": "https://www.calvados-tourisme.com/offre/site-de-la-pointe-du-hoc/"
  },
  {
    "pays": "Espagne",
    "ville": "Barcelone",
    "annee": "2014",
    "latitude": "41.38039",
    "longitude": "2.1206365",
    "img": "data/images/campnou.jpg",
    "imgDesc": "'Camp Nou'",
    "lien": "https://www.fcbarcelona.fr/"
  },
  {
    "pays": "Espagne",
    "ville": "Barcelone",
    "annee": "2014",
    "latitude": "41.382568359375",
    "longitude": "2.177138328552246",
    "img": "data/images/sagradafamilia.jpg",
    "imgDesc": "'Sagrada Familia'",
    "lien": "https://sagradafamilia.org/"
  },
  {
    "pays": "Espagne",
    "ville": "Barcelone",
    "annee": "2014",
    "latitude": "41.4067434",
    "longitude": "2.1590251",
    "img": "data/images/parcguell.jpg",
    "imgDesc": "'El Parque Güell'",
    "lien": "https://parkguell.barcelona/"
  },
  {
    "pays": "Espagne",
    "ville": "Barcelone",
    "annee": "2014",
    "latitude": "41.3915446",
    "longitude": "2.1646961",
    "img": "data/images/lacasabatllo.jpg",
    "imgDesc": "'La Casa Batlló'",
    "lien": "https://www.casabatllo.es/"
  },
  {
    "pays": "France",
    "ville": "Paris",
    "annee": "2008",
    "latitude": "48.8247834",
    "longitude": "2.3592573",
    "img": "data/images/disneylandparis.jpg",
    "imgDesc": "Disneyland Paris",
    "lien": "https://www.disneylandparis.com/fr-fr/"
  }
]